{
    "facilities": [
        {
            "facility_id": "1",
            "station_id": "1",
            "division": "Division Name",
            "name": "Facility Name",
            "region": "Northwest Region",
            "type": "Facility Type",
            "address": "12345 Street Name",
            "city": "City",
            "state": "ST",
            "postal_code": "55555",
            "phone": "555-555-5555",
            "fax": "555-555-5555",
            "latitude": "61.232006",
            "longitude": "-149.743395",
            "description": "Lorem ipsum dolor sit amet, consectetur adipisicing elit, sed do eiusmod tempor incididunt ut labore et dolore magna aliqua. Ut enim ad minim veniam, quis nostrud exercitation ullamco laboris nisi ut aliquip ex ea commodo consequat. Duis aute irure dolor in reprehenderit in voluptate velit esse cillum dolore eu fugiat nulla pariatur. Excepteur sint occaecat cupidatat non proident, sunt in culpa qui officia deserunt mollit anim id est laborum.",
            "url": "http://www.example.com"
        },
		{
            "facility_id": "2",
            "station_id": "2",
            "division": "Division Name",
            "name": "Facility Name",
            "region": "Northwest Region",
            "type": "Facility Type",
            "address": "12345 Street Name",
            "city": "City",
            "state": "ST",
            "postal_code": "55555",
            "phone": "555-555-5555",
            "fax": "555-555-5555",
            "latitude": "61.232006",
            "longitude": "-149.743395",
            "description": "Lorem ipsum dolor sit amet, consectetur adipisicing elit, sed do eiusmod tempor incididunt ut labore et dolore magna aliqua. Ut enim ad minim veniam, quis nostrud exercitation ullamco laboris nisi ut aliquip ex ea commodo consequat. Duis aute irure dolor in reprehenderit in voluptate velit esse cillum dolore eu fugiat nulla pariatur. Excepteur sint occaecat cupidatat non proident, sunt in culpa qui officia deserunt mollit anim id est laborum.",
            "url": "http://www.example.com"
        },
		{
            "facility_id": "3",
            "station_id": "3",
            "division": "Division Name",
            "name": "Facility Name",
            "region": "Northwest Region",
            "type": "Facility Type",
            "address": "12345 Street Name",
            "city": "City",
            "state": "ST",
            "postal_code": "55555",
            "phone": "555-555-5555",
            "fax": "555-555-5555",
            "latitude": "61.232006",
            "longitude": "-149.743395",
            "description": "Lorem ipsum dolor sit amet, consectetur adipisicing elit, sed do eiusmod tempor incididunt ut labore et dolore magna aliqua. Ut enim ad minim veniam, quis nostrud exercitation ullamco laboris nisi ut aliquip ex ea commodo consequat. Duis aute irure dolor in reprehenderit in voluptate velit esse cillum dolore eu fugiat nulla pariatur. Excepteur sint occaecat cupidatat non proident, sunt in culpa qui officia deserunt mollit anim id est laborum.",
            "url": "http://www.example.com"
        },
		{
            "facility_id": "4",
            "station_id": "4",
            "division": "Division Name",
            "name": "Facility Name",
            "region": "Northwest Region",
            "type": "Facility Type",
            "address": "12345 Street Name",
            "city": "City",
            "state": "ST",
            "postal_code": "55555",
            "phone": "555-555-5555",
            "fax": "555-555-5555",
            "latitude": "61.232006",
            "longitude": "-149.743395",
            "description": "Lorem ipsum dolor sit amet, consectetur adipisicing elit, sed do eiusmod tempor incididunt ut labore et dolore magna aliqua. Ut enim ad minim veniam, quis nostrud exercitation ullamco laboris nisi ut aliquip ex ea commodo consequat. Duis aute irure dolor in reprehenderit in voluptate velit esse cillum dolore eu fugiat nulla pariatur. Excepteur sint occaecat cupidatat non proident, sunt in culpa qui officia deserunt mollit anim id est laborum.",
            "url": "http://www.example.com"
        },
		{
            "facility_id": "5",
            "station_id": "5",
            "division": "Division Name",
            "name": "Facility Name",
            "region": "Northwest Region",
            "type": "Facility Type",
            "address": "12345 Street Name",
            "city": "City",
            "state": "ST",
            "postal_code": "55555",
            "phone": "555-555-5555",
            "fax": "555-555-5555",
            "latitude": "61.232006",
            "longitude": "-149.743395",
            "description": "Lorem ipsum dolor sit amet, consectetur adipisicing elit, sed do eiusmod tempor incididunt ut labore et dolore magna aliqua. Ut enim ad minim veniam, quis nostrud exercitation ullamco laboris nisi ut aliquip ex ea commodo consequat. Duis aute irure dolor in reprehenderit in voluptate velit esse cillum dolore eu fugiat nulla pariatur. Excepteur sint occaecat cupidatat non proident, sunt in culpa qui officia deserunt mollit anim id est laborum.",
            "url": "http://www.example.com"
        }              
	]
}